City_ID,City,Lat,Lng,Max Temp,Humidity,Cloudiness,Wind Speed,Country,Date
0,adre,13.4667,22.2,303.0,13,95,4.24,TD,1679041005
1,ushuaia,-54.8,-68.3,277.96,87,100,10.8,AR,1679041006
2,port elizabeth,-33.918,25.5701,299.31,78,0,6.69,ZA,1679041006
3,castro,-24.7911,-50.0119,289.28,92,100,3.94,BR,1679041007
4,ambatondrazaka,-17.8333,48.4167,300.82,65,99,1.09,MG,1679041007
5,tsabong,-26.0217,22.401,301.94,28,10,8.63,BW,1679041008
6,sarkand,45.41,79.9186,275.12,63,100,2.85,KZ,1679041009
7,punta arenas,-53.15,-70.9167,280.21,81,75,9.26,CL,1679041010
8,cape town,-33.9258,18.4232,294.2,86,75,5.14,ZA,1679040785
9,lazaro cardenas,17.9583,-102.2,295.33,88,5,1.84,MX,1679041011
10,hermanus,-34.4187,19.2345,294.5,79,18,7.47,ZA,1679041012
11,sampit,-2.5333,112.95,305.24,53,100,1.05,ID,1679041012
12,winfield,37.2398,-96.9956,273.53,60,0,7.72,US,1679040918
13,albany,42.6001,-73.9662,273.83,82,100,0.68,US,1679041013
14,sainte-rose,16.3324,-61.6979,293.17,94,50,1.03,GP,1679041014
15,oil city,41.4339,-79.7064,279.92,92,100,4.12,US,1679041015
16,luena,-11.7833,19.9167,294.26,77,26,1.7,AO,1679041015
17,vaini,-21.2,-175.2,299.52,84,99,11.38,TO,1679041016
18,rikitea,-23.1203,-134.9692,299.49,81,98,7.43,PF,1679041016
19,la ronge,55.1001,-105.2842,248.29,77,20,1.54,CA,1679040919
20,bambous virieux,-20.3428,57.7575,301.05,94,75,5.14,MU,1679041017
21,lagos,6.5833,3.75,298.33,68,55,2.48,NG,1679040290
22,port moresby,-9.4431,147.1797,296.83,94,100,2.57,PG,1679041018
23,jamestown,42.097,-79.2353,279.92,99,100,5.66,US,1679040735
24,dikson,73.5069,80.5464,247.08,98,100,6.85,RU,1679041019
25,faya,18.3851,42.4509,292.44,50,5,2.79,SA,1679041020
26,manicore,-5.8092,-61.3003,295.15,99,100,0.28,BR,1679041020
27,busselton,-33.65,115.3333,296.16,43,0,6.11,AU,1679041021
28,teya,60.3778,92.6267,273.95,90,100,4.37,RU,1679041022
29,puerto ayora,-0.7393,-90.3518,299.57,89,7,1.34,EC,1679041022
30,hami,42.8,93.45,290.37,15,100,4.04,CN,1679041023
31,severo-kurilsk,50.6789,156.125,274.59,97,100,7.87,RU,1679041023
32,qaanaaq,77.484,-69.3632,251.72,98,100,0.38,GL,1679040929
33,east london,-33.0153,27.9116,296.67,78,0,2.06,ZA,1679041024
34,butaritari,3.0707,172.7902,300.76,73,91,3.45,KI,1679041025
35,calatayud,41.3535,-1.6432,286.34,60,100,5.32,ES,1679041026
36,atuona,-9.8,-139.0333,300.15,80,99,7.64,PF,1679041026
37,brandon,27.9378,-82.2859,291.42,77,0,7.2,US,1679040772
38,tuktoyaktuk,69.4541,-133.0374,238.51,99,9,2.54,CA,1679041027
39,mataura,-46.1927,168.8643,285.64,62,95,2.96,NZ,1679041028
40,belyy yar,53.6039,91.3903,282.09,56,0,4.0,RU,1679041029
41,airai,-8.9266,125.4092,292.08,91,84,0.43,TL,1679041029
42,hellvik,59.9156,5.781,279.46,89,100,4.23,NO,1679041030
43,magadan,59.5667,150.8,271.5,97,100,3.18,RU,1679041030
44,tilichiki,60.4667,166.1,262.69,96,100,1.07,RU,1679041031
45,orangeburg,33.4918,-80.8557,283.13,88,0,0.89,US,1679041032
46,seaham,54.839,-1.3458,284.33,89,100,1.34,GB,1679041032
47,kodiak,57.79,-152.4072,271.88,80,100,3.6,US,1679041033
48,hobart,-42.8794,147.3294,290.52,54,75,6.69,AU,1679041033
49,muzhi,65.3667,64.6667,273.08,100,100,0.85,RU,1679041034
50,krasnoturansk,54.3186,91.5639,274.06,98,94,0.34,RU,1679041034
51,arsenyev,44.1631,133.2733,274.33,54,94,3.95,RU,1679041035
52,yellowknife,62.456,-114.3525,263.46,79,75,3.09,CA,1679041036
53,villazon,-22.0866,-65.5942,281.39,83,80,2.45,BO,1679041036
54,hilo,19.7297,-155.09,298.31,89,0,0.89,US,1679041037
55,mayumba,-3.432,10.6554,299.03,85,100,1.77,GA,1679041038
56,moindou,-21.6924,165.677,299.43,87,100,4.45,NC,1679041039
57,mana,5.6592,-53.7767,296.42,80,13,3.12,GF,1679041039
58,saint-philippe,-21.3585,55.7679,302.66,76,69,4.56,RE,1679041040
59,hithadhoo,-0.6,73.0833,301.29,75,100,4.23,MV,1679041040
60,mar del plata,-38.0023,-57.5575,294.31,98,100,4.63,AR,1679041041
61,srednekolymsk,67.45,153.6833,268.62,87,100,2.16,RU,1679041042
62,avarua,-21.2078,-159.775,297.18,100,20,0.51,CK,1679040888
63,charters towers,-20.1,146.2667,303.61,48,63,7.53,AU,1679041043
64,adrar,20.5022,-10.0711,296.8,10,8,4.88,MR,1679041044
65,gboko,7.3179,8.9951,300.92,61,97,1.92,NG,1679041044
66,praia,14.9215,-23.5087,294.45,73,20,7.72,CV,1679041045
67,new norfolk,-42.7826,147.0587,290.33,53,100,2.24,AU,1679041046
68,leningradskiy,69.3833,178.4167,260.11,83,100,3.05,RU,1679041047
69,longyearbyen,78.2186,15.6401,257.06,72,75,3.09,SJ,1679041049
70,port alfred,-33.5906,26.891,295.47,84,100,2.24,ZA,1679041050
71,bethel,41.3712,-73.414,278.42,70,0,0.0,US,1679041050
72,barrow,71.2906,-156.7887,245.16,69,75,4.63,US,1679041051
73,katsuura,35.1333,140.3,285.66,83,100,8.45,JP,1679041052
74,nikolskoye,59.7035,30.7861,274.71,70,3,2.33,RU,1679041053
75,carnarvon,-24.8667,113.6333,299.76,52,0,8.91,AU,1679041053
76,grindavik,63.8424,-22.4338,268.41,54,0,2.06,IS,1679041054
77,ampanihy,-24.7,44.75,300.85,55,32,2.13,MG,1679041054
78,labuhan,-6.8844,112.2051,302.62,69,60,3.49,ID,1679041055
79,kesinga,20.2,83.2333,302.14,38,100,2.75,IN,1679041056
80,verkhnetulomskiy,68.6073,31.7962,261.22,92,66,2.11,RU,1679041056
81,khorinsk,52.1657,109.7726,275.78,41,6,4.45,RU,1679041057
82,ust-karsk,52.7011,118.8077,274.68,72,62,3.18,RU,1679041057
83,guerrero negro,27.9769,-114.0611,287.53,75,100,5.15,MX,1679041058
84,makueni,-1.8041,37.6203,296.94,61,98,2.8,KE,1679041059
85,mahabad,36.7631,45.7222,282.28,70,93,4.35,IR,1679041059
86,ilulissat,69.2167,-51.1,260.16,56,75,7.72,GL,1679041060
87,ciudad bolivar,8.1222,-63.5497,296.62,72,0,4.45,VE,1679041060
88,zhigansk,66.7697,123.3711,265.38,94,100,8.12,RU,1679040762
89,svetlaya,46.5389,138.3297,272.9,55,7,5.59,RU,1679041061
90,iqaluit,63.7506,-68.5145,247.0,70,0,11.83,CA,1679041062
91,talnakh,69.4865,88.3972,255.25,93,100,5.32,RU,1679041063
92,sitka,57.0531,-135.33,279.09,75,100,6.17,US,1679041063
93,mehamn,71.0357,27.8492,269.1,74,75,8.75,NO,1679041064
94,alofi,-19.0595,-169.9187,298.09,88,40,2.06,NU,1679041064
95,zaragoza,41.6561,-0.8773,284.74,80,75,5.66,ES,1679040862
96,hofn,64.2539,-15.2082,273.16,55,75,6.69,IS,1679041065
97,pitea,65.3172,21.4794,263.2,89,66,1.0,SE,1679041066
98,bluff,-46.6,168.3333,285.82,63,96,8.78,NZ,1679041066
99,samfya,-11.3649,29.5565,293.3,88,98,2.45,ZM,1679041067
100,cabedelo,-6.9811,-34.8339,297.52,87,100,2.37,BR,1679041067
101,manbij,36.5281,37.9549,287.27,61,100,3.26,SY,1679041068
102,yinchuan,38.4681,106.2731,284.5,17,0,4.36,CN,1679041069
103,lalganj,25.8667,85.1833,302.12,21,100,2.37,IN,1679041069
104,arcachon,44.5875,-1.0519,285.6,87,0,2.06,FR,1679040891
105,villanueva de cordoba,38.3228,-4.6287,282.79,92,100,1.33,ES,1679041070
106,sumbe,-11.2061,13.8437,299.31,81,100,1.18,AO,1679041071
107,belaya gora,68.5333,146.4167,261.73,95,100,1.16,RU,1679041072
108,nizhnevartovsk,60.9344,76.5531,277.16,60,0,7.0,RU,1679041072
109,kruisfontein,-34.0033,24.7314,304.88,32,36,7.41,ZA,1679041073
110,vestmanna,62.1564,-7.1664,274.66,87,40,0.51,FO,1679041073
111,codrington,-38.2667,141.9667,289.9,64,3,2.84,AU,1679041074
112,sokoni,-6.4333,39.55,301.59,67,67,2.1,TZ,1679041074
113,mitsamiouli,-11.3847,43.2844,302.1,69,87,0.89,KM,1679041075
114,zelenets,61.8849,50.7489,274.29,84,100,3.25,RU,1679041076
115,ponta do sol,32.6667,-17.1,290.38,70,9,2.06,PT,1679041076
116,bilma,18.6853,12.9164,300.4,7,0,6.71,NE,1679041077
117,pirovskoye,57.6267,92.2658,274.14,100,100,2.76,RU,1679041077
118,lebu,-37.6167,-73.65,285.86,93,96,4.08,CL,1679041006
119,bredasdorp,-34.5322,20.0403,298.04,60,16,4.13,ZA,1679041079
120,honningsvag,70.9821,25.9704,269.01,74,75,5.66,NO,1679041079
121,makakilo city,21.3469,-158.0858,298.33,86,20,2.57,US,1679041080
122,simbahan,6.3032,120.5836,301.02,74,95,1.76,PH,1679041080
123,bonavista,48.6499,-53.1147,273.17,98,100,8.01,CA,1679041081
124,thompson,55.7435,-97.8558,251.24,77,100,4.63,CA,1679041081
125,chokurdakh,70.6333,147.9167,256.38,92,96,1.77,RU,1679041082
126,salta,-24.7859,-65.4117,290.14,94,40,1.54,AR,1679041083
127,aksu,41.1231,80.2644,287.39,24,0,1.7,CN,1679041083
128,ixtapa,20.7,-105.2,291.45,57,0,1.65,MX,1679041084
129,pucallpa,-8.3791,-74.5539,296.06,92,100,0.69,PE,1679041084
130,edd,13.9297,41.6925,300.99,71,8,2.03,ER,1679041085
131,varkkallai,8.7341,76.7067,306.03,64,39,6.4,IN,1679041086
132,tabuk,17.4189,121.4443,302.05,56,64,1.69,PH,1679041086
133,fortuna,40.5982,-124.1573,278.66,95,100,0.0,US,1679041087
134,beloha,-25.1667,45.05,301.15,57,37,3.66,MG,1679041088
135,saint george,37.1041,-113.5841,279.48,63,0,0.45,US,1679041088
136,moose factory,51.2585,-80.6094,262.15,72,100,4.63,CA,1679041089
137,voh,-20.9667,164.7,298.97,90,41,3.02,NC,1679041090
138,barrhead,55.7992,-4.3929,282.6,89,100,1.54,GB,1679041090
139,yokote,39.3,140.5667,279.24,61,62,3.9,JP,1679041091
140,lambarene,-0.7001,10.2406,300.88,74,88,0.62,GA,1679041092
141,klaksvik,62.2266,-6.589,275.66,71,90,12.68,FO,1679041092
142,sovetskiy,61.3614,63.5842,275.02,94,100,3.43,RU,1679041093
143,scituate,42.1959,-70.7259,278.22,79,100,0.0,US,1679041093
144,shahrud,36.4182,54.9763,288.19,38,6,4.67,IR,1679041094
145,espinosa,-14.9261,-42.8192,290.45,95,81,1.92,BR,1679041095
146,gorontalo,0.5412,123.0595,300.13,90,100,0.73,ID,1679041095
147,kapaa,22.0752,-159.319,297.33,88,75,5.66,US,1679041096
148,buala,-8.145,159.5921,299.78,82,43,1.85,SB,1679041096
149,saint-pierre,-21.3393,55.4781,303.66,70,0,3.6,RE,1679041097
150,yulara,-25.2406,130.9889,313.14,9,100,1.64,AU,1679041098
151,faanui,-16.4833,-151.75,301.63,73,88,6.23,PF,1679041099
152,cayenne,4.9333,-52.3333,295.17,94,0,0.0,GF,1679041100
153,chuy,-33.6971,-53.4616,296.01,94,100,2.6,UY,1679041101
154,verkhoshizhemye,58.011,49.1038,273.88,100,100,1.34,RU,1679041102
155,kavaratti,10.5669,72.642,301.0,72,26,3.58,IN,1679041103
156,arraial do cabo,-22.9661,-42.0278,296.23,83,0,0.8,BR,1679041103
157,tasiilaq,65.6145,-37.6368,264.24,80,99,2.39,GL,1679041104
158,kununurra,-15.7667,128.7333,310.14,34,99,3.6,AU,1679041104
159,quelimane,-17.8786,36.8883,299.12,83,40,2.57,MZ,1679041105
160,pevek,69.7008,170.3133,259.99,81,83,5.56,RU,1679041105
161,namibe,-15.1961,12.1522,296.38,79,100,1.57,AO,1679041106
162,canchungo,12.0672,-16.0333,294.22,75,8,3.55,GW,1679041107
163,port lincoln,-34.7333,135.8667,297.27,59,9,2.65,AU,1679041107
164,petropavlovsk-kamchatskiy,53.0452,158.6483,273.48,100,100,5.0,RU,1679041108
165,mogadishu,2.0371,45.3438,301.91,71,66,5.06,SO,1679041015
166,miyako,39.6367,141.9525,279.6,56,33,1.77,JP,1679040859
167,tateyama,34.9833,139.8667,287.65,81,100,8.58,JP,1679041109
168,xicotencatl,23.0167,-98.8833,294.72,92,13,1.51,MX,1679041110
169,bandarbeyla,9.4942,50.8122,301.74,68,97,3.52,SO,1679041111
170,barentu,15.1139,37.5928,301.08,28,30,1.46,ER,1679041111
171,victor harbor,-35.5667,138.6167,297.65,56,62,1.78,AU,1679041112
172,xinmin,41.9908,122.8253,282.94,14,6,2.6,CN,1679041113
173,sao joao da barra,-21.6403,-41.0511,294.67,91,0,3.18,BR,1679041113
174,ancud,-41.8697,-73.8203,279.77,80,100,3.43,CL,1679041042
175,kupang,-10.1667,123.5833,300.47,94,40,2.57,ID,1679041114
176,geraldton,-28.7667,114.6,299.38,47,41,10.29,AU,1679041115
177,wete,-5.0559,39.7294,304.16,55,35,2.24,TZ,1679041116
178,portland,45.5234,-122.6762,280.71,57,0,0.0,US,1679040986
179,cidreira,-30.1811,-50.2056,296.91,89,4,7.62,BR,1679041118
180,esperance,-33.8667,121.9,293.32,68,56,9.74,AU,1679041119
181,saldanha,-33.0117,17.9442,291.92,90,100,2.51,ZA,1679041119
182,vardo,70.3705,31.1107,269.14,74,75,8.75,NO,1679041120
183,san patricio,28.017,-97.5169,297.2,84,100,4.75,US,1679041120
184,yar-sale,66.8333,70.8333,264.49,86,100,4.77,RU,1679041121
185,limpapa,7.1197,121.9106,300.78,77,100,1.03,PH,1679041121
186,tabou,4.423,-7.3528,300.19,83,14,3.78,CI,1679041122
187,te anau,-45.4167,167.7167,283.6,75,38,2.41,NZ,1679041123
188,sale,34.0389,-6.8166,289.12,94,75,2.06,MA,1679041123
189,beibei,29.8256,106.4339,295.02,61,100,1.24,CN,1679041124
190,denpasar,-8.65,115.2167,303.55,74,40,4.63,ID,1679040885
191,harper,4.375,-7.7169,300.89,80,58,4.63,LR,1679041125
192,tignere,7.3667,12.65,300.4,22,100,0.78,CM,1679041125
193,praia da vitoria,38.7333,-27.0667,287.29,82,20,3.11,PT,1679041126
194,upernavik,72.7868,-56.1549,257.41,96,100,2.75,GL,1679041127
195,bathsheba,13.2167,-59.5167,297.49,73,40,3.6,BB,1679041128
196,touros,-5.1989,-35.4608,296.84,93,100,2.16,BR,1679040906
197,huarmey,-10.0681,-78.1522,297.62,82,100,2.9,PE,1679041128
198,garissa,-0.4536,39.6401,303.5,49,97,2.71,KE,1679041129
199,lufkin,31.3382,-94.7291,283.06,90,81,5.34,US,1679041130
200,abu kamal,34.4506,40.9171,292.28,51,3,3.39,SY,1679041130
201,sao filipe,14.8961,-24.4956,294.95,71,0,4.37,CV,1679041131
202,roald,62.5833,6.1333,280.66,87,75,2.57,NO,1679041132
203,baracoa,20.3467,-74.4958,295.54,70,84,5.12,CU,1679041132
204,ketchikan,55.3422,-131.6461,275.48,98,100,2.23,US,1679041074
205,ximei,24.9639,118.3794,299.76,47,43,4.07,CN,1679041133
206,balkanabat,39.5108,54.3671,292.07,52,88,1.63,TM,1679041134
207,sisimiut,66.9395,-53.6735,258.48,78,52,4.65,GL,1679041134
208,bilibino,68.0546,166.4372,257.37,90,48,1.86,RU,1679041135
209,plymouth,41.8334,-70.8328,277.63,79,100,0.0,US,1679041135
210,bengkulu,-3.8004,102.2655,302.82,66,77,2.8,ID,1679041136
211,nemuro,43.3236,145.575,274.44,73,39,7.58,JP,1679041136
212,victoria,22.2855,114.1577,298.36,78,16,1.34,HK,1679041081
213,los andes,-32.8337,-70.5983,288.16,64,0,0.53,CL,1679041002
214,ribeira grande,38.5167,-28.7,289.14,88,75,6.26,PT,1679041138
215,maldonado,-34.6667,-54.9167,296.05,93,99,1.31,UY,1679040986
216,virginia beach,36.8529,-75.978,283.18,63,75,5.66,US,1679041071
217,youghal,51.95,-7.8506,283.71,100,100,7.79,IE,1679041139
218,vila franca do campo,37.7167,-25.4333,286.21,85,87,3.58,PT,1679041140
219,taltal,-25.4,-70.4833,292.97,89,25,0.5,CL,1679041140
220,cherskiy,68.75,161.3,266.15,79,92,6.27,RU,1679041141
221,kathu,7.9178,98.3332,307.05,58,100,4.0,TH,1679041142
222,pisco,-13.7,-76.2167,296.18,78,0,1.54,PE,1679041142
223,griffith,41.5284,-87.4237,279.88,90,100,10.29,US,1679041143
224,paraiso,9.8383,-83.8656,290.86,100,54,0.7,CR,1679041143
225,tromso,69.6496,18.957,268.16,80,20,4.63,NO,1679041144
226,wasilla,61.5814,-149.4394,269.14,53,0,7.2,US,1679041145
227,provideniya,64.3833,-173.3,253.04,84,4,2.29,RU,1679041145
228,aykhal,66.0,111.5,268.06,93,100,13.82,RU,1679041146
229,moerai,-22.4333,-151.3333,299.86,77,100,2.34,PF,1679041146
230,andijon,40.7821,72.3442,294.03,28,0,1.03,UZ,1679041147
231,cap malheureux,-19.9842,57.6142,300.63,79,100,2.68,MU,1679041147
232,conde,-7.2597,-34.9075,296.85,100,20,2.06,BR,1679041148
233,tucumcari,35.1717,-103.725,274.23,68,96,2.53,US,1679041149
234,shimoda,34.6667,138.95,287.35,86,98,3.66,JP,1679041149
235,roma,43.2128,-75.4557,276.86,68,100,3.09,US,1679041150
236,sola,-13.8833,167.55,301.13,71,100,2.11,VU,1679041151
237,pontal do parana,-25.6533,-48.5128,294.28,94,20,1.28,BR,1679041151
238,leh,34.1667,77.5833,272.83,61,78,2.46,IN,1679041152
239,det udom,14.906,105.0784,308.05,22,31,2.37,TH,1679041152
240,georgetown,5.4112,100.3354,306.11,58,20,5.66,MY,1679040920
241,oranjemund,-28.55,16.4333,293.94,71,45,2.78,NA,1679041153
242,tezpur,26.6333,92.8,306.45,22,23,3.14,IN,1679041154
243,broome,42.2506,-75.833,277.69,73,100,0.89,US,1679041154
244,san jose,37.3394,-121.895,282.83,80,0,0.89,US,1679040864
245,vestmannaeyjar,63.4427,-20.2734,271.7,74,20,1.54,IS,1679041156
246,luderitz,-26.6481,15.1594,292.93,77,100,4.25,NA,1679041156
247,nova russas,-4.7067,-40.5631,294.58,97,100,0.1,BR,1679041157
248,goksun,38.021,36.4973,280.8,69,100,3.18,TR,1679041158
249,tual,-5.6667,132.75,301.73,69,46,1.67,ID,1679041158
250,bud,39.447,-86.1758,284.18,89,100,8.4,US,1679041159
251,ati,13.2154,18.3353,305.18,10,43,6.6,TD,1679041159
252,ust-ishim,57.6935,71.1665,274.81,99,100,3.75,RU,1679041160
253,dingle,10.9995,122.6711,302.08,70,89,6.01,PH,1679041161
254,acapulco,16.8634,-99.8901,297.05,88,0,0.0,MX,1679041161
255,aklavik,68.2191,-135.0107,239.72,98,61,1.18,CA,1679041162
256,wysokie mazowieckie,52.9166,22.5171,275.4,59,100,3.29,PL,1679041165
257,murgab,37.4966,61.9714,300.08,28,0,3.09,TM,1679041166
258,yingcheng,30.95,113.55,280.44,73,100,5.37,CN,1679041167
259,lashio,22.9333,97.75,304.55,18,40,2.91,MM,1679041167
260,aksarka,66.5606,67.7975,270.09,97,100,2.23,RU,1679041168
261,nagato,34.3833,131.2,285.3,78,100,4.7,JP,1679041168
262,springbok,-29.6643,17.8865,297.47,41,0,1.54,ZA,1679041169
263,half moon bay,37.4636,-122.4286,283.07,83,0,1.54,US,1679041045
264,khatanga,71.9667,102.5,259.34,85,100,12.03,RU,1679041170
265,ustye,59.6304,39.736,270.08,88,100,3.56,RU,1679041171
266,baisha,26.5222,110.9311,283.14,90,100,1.54,CN,1679041171
267,hirado,33.3597,129.5531,286.14,87,100,9.03,JP,1679041172
268,dicabisagan,17.0818,122.4157,299.42,68,35,2.78,PH,1679041173
269,mareeba,-17.0,145.4333,301.73,71,45,2.45,AU,1679041173
270,oyama,36.3,139.8,285.25,59,100,3.37,JP,1679041174
271,key west,24.5557,-81.7826,296.15,56,100,8.23,US,1679040945
272,bria,6.5423,21.9863,296.96,76,100,1.64,CF,1679041175
273,altay,47.8667,88.1167,275.61,98,100,1.2,CN,1679041176
274,hobyo,5.3505,48.5268,302.64,66,56,5.04,SO,1679041176
275,streator,41.1209,-88.8354,274.29,93,100,3.13,US,1679041177
276,gulu,2.7746,32.299,302.4,39,83,4.14,UG,1679041177
277,pacific grove,36.6177,-121.9166,282.6,91,0,1.54,US,1679041178
278,rocha,-34.4833,-54.3333,294.85,97,100,1.66,UY,1679041178
279,norman wells,65.282,-126.8329,250.17,64,75,2.06,CA,1679041179
280,methoni,36.8197,21.7049,283.83,77,69,3.81,GR,1679041180
281,deep river,46.1001,-77.4995,273.68,95,100,0.45,CA,1679040925
282,nhulunbuy,-12.2333,136.7667,302.49,74,40,4.12,AU,1679041180
283,beisfjord,68.3751,17.5988,267.86,73,0,3.53,NO,1679041181
284,hamilton,39.1834,-84.5333,283.38,89,100,4.63,US,1679040899
285,bushehr,28.9684,50.8385,296.2,46,0,8.75,IR,1679041182
286,urumqi,43.801,87.6005,284.68,44,0,4.0,CN,1679041183
287,kavieng,-2.5744,150.7967,300.29,74,100,3.42,PG,1679041183
288,matamoros,25.5333,-103.25,292.54,23,50,0.74,MX,1679041026
289,lyman,48.9884,37.8023,281.6,74,100,3.58,UA,1679041184
290,olinda,-8.0089,-34.8553,297.0,88,20,1.03,BR,1679041185
291,mitchell,43.7094,-98.0298,268.21,83,40,6.17,US,1679040983
292,jaque,7.5175,-78.1703,297.78,85,97,2.13,PA,1679041186
293,homer,59.6425,-151.5483,271.93,89,75,1.79,US,1679041187
294,takoradi,4.8845,-1.7554,301.17,81,45,4.01,GH,1679041188
295,samarai,-10.6167,150.6667,298.03,93,100,2.05,PG,1679041189
296,peniche,39.3558,-9.3811,288.46,86,2,7.77,PT,1679041189
297,sorland,67.667,12.6934,273.07,64,0,12.86,NO,1679041190
298,tolaga bay,-38.3667,178.3,291.74,86,96,3.88,NZ,1679041190
299,haines junction,60.7522,-137.5108,264.12,92,98,0.0,CA,1679041191
300,kinkala,-4.3614,14.7644,297.1,82,81,1.72,CG,1679040947
301,bom jesus,-9.0744,-44.3586,295.03,92,99,0.6,BR,1679040983
302,sao joaquim,-28.2939,-49.9317,284.32,99,20,1.29,BR,1679041010
303,tartagal,-22.5164,-63.8013,293.93,82,20,1.33,AR,1679041192
304,college,64.8569,-147.8028,252.92,75,40,1.54,US,1679041193
305,salalah,17.0151,54.0924,303.2,62,20,5.66,OM,1679041194
306,cabo san lucas,22.8909,-109.9124,295.66,50,1,4.91,MX,1679041194
307,kahului,20.8947,-156.47,296.95,80,0,4.63,US,1679041195
308,rawson,-43.3002,-65.1023,287.54,60,100,5.42,AR,1679041195
309,ostrovnoy,68.0531,39.5131,264.94,83,65,7.34,RU,1679041196
310,mahebourg,-20.4081,57.7,300.51,94,75,5.14,MU,1679041196
311,nijar,36.9665,-2.206,286.85,63,0,1.54,ES,1679041197
312,leshukonskoye,64.8989,45.7622,269.21,85,64,3.1,RU,1679041198
313,necochea,-38.5473,-58.7368,292.23,93,0,3.26,AR,1679041198
314,el porvenir,13.7617,-87.3458,294.78,78,42,1.2,HN,1679041199
315,katangli,51.7102,143.2326,266.74,77,100,3.41,RU,1679041200
316,banyo,6.75,11.8167,300.63,24,88,0.88,CM,1679041200
317,henties bay,-22.116,14.2845,291.1,86,73,1.54,NA,1679041201
318,bangassou,4.7413,22.8184,300.26,64,99,1.26,CF,1679041201
319,tiksi,71.6872,128.8694,264.92,79,100,11.78,RU,1679041202
320,sawtell,-30.3833,153.1,299.16,69,0,3.6,AU,1679041203
321,narsaq,60.9167,-46.05,265.27,64,50,3.88,GL,1679041203
322,qaqortoq,60.7167,-46.0333,261.11,65,45,3.41,GL,1679041204
323,sedalia,38.7045,-93.2283,272.1,80,0,9.39,US,1679041204
324,alekseyevsk,57.8406,108.3492,273.69,87,99,5.21,RU,1679041205
325,ligayan,4.6533,119.4706,301.21,72,100,2.92,PH,1679041206
326,ushtobe,45.2514,77.9838,278.46,38,91,5.15,KZ,1679041207
327,wladyslawowo,54.7909,18.4009,279.23,73,100,7.41,PL,1679041207
328,kargil,34.5667,76.1,270.76,88,100,1.32,IN,1679041208
329,fortaleza,-3.7227,-38.5247,297.22,94,0,1.03,BR,1679041028
330,muskegon,43.3,-86.1334,282.02,91,100,4.12,US,1679041209
331,saskylakh,71.9167,114.0833,270.28,90,99,8.0,RU,1679041210
332,isangel,-19.55,169.2667,300.11,85,99,3.49,VU,1679041211
333,palana,59.1167,159.9667,270.44,86,100,2.38,RU,1679041211
334,sheridan,44.8333,-106.9173,267.77,66,0,3.6,US,1679041212
335,saint-augustin,51.226,-58.6502,273.18,86,98,6.38,CA,1679041212
336,koumac,-20.5667,164.2833,300.27,83,71,5.27,NC,1679041213
337,dnipryany,46.7463,33.2729,281.56,79,100,5.88,UA,1679041214
338,swakopmund,-22.6833,14.5333,292.03,85,35,1.34,NA,1679041214
339,preston,53.7667,-2.7167,283.09,94,75,2.57,GB,1679041215
340,akcaabat,41.0212,39.5715,283.08,100,100,1.03,TR,1679041216
341,kawalu,-7.3817,108.2082,300.73,79,100,1.06,ID,1679041216
342,dustlik,40.5247,68.0358,291.83,36,0,1.07,UZ,1679041217
343,dryden,49.7833,-92.7503,263.31,85,100,4.63,CA,1679041217
344,korla,41.7597,86.1469,288.7,24,23,5.68,CN,1679041218
345,uberlandia,-18.9186,-48.2772,293.71,83,0,3.09,BR,1679041219
346,macaiba,-5.8583,-35.3539,296.61,100,75,2.06,BR,1679041219
347,chimbote,-9.0853,-78.5783,297.93,80,100,2.31,PE,1679041220
348,mekhe,15.1097,-16.6218,292.42,90,32,3.8,SN,1679041220
349,paamiut,61.994,-49.6678,263.37,63,99,4.54,GL,1679041221
350,itarema,-2.9248,-39.9167,296.48,91,100,1.24,BR,1679040951
351,kaitangata,-46.2817,169.8464,285.7,68,100,4.01,NZ,1679041222
352,cabras,39.93,8.5314,288.63,48,2,3.85,IT,1679041223
353,mount isa,-20.7333,139.5,307.02,38,7,3.6,AU,1679041224
354,sabha,27.0377,14.4283,290.83,29,0,4.58,LY,1679041224
355,souillac,-20.5167,57.5167,300.36,94,75,5.14,MU,1679041225
356,taoudenni,22.6783,-3.9836,297.72,11,11,4.07,ML,1679041225
357,nanortalik,60.1432,-45.2371,264.15,78,47,2.06,GL,1679041226
358,tete,-16.1564,33.5867,299.2,73,75,2.57,MZ,1679041227
359,two rivers,44.1539,-87.5693,275.46,96,100,3.6,US,1679041227
360,marawi,7.9986,124.2928,296.31,93,100,1.91,PH,1679041228
361,olafsvik,64.8945,-23.7142,270.18,54,100,3.04,IS,1679041228
362,hervey bay,-25.2986,152.8535,300.22,77,5,4.48,AU,1679041230
363,kizhinga,51.8462,109.9097,275.58,43,5,4.9,RU,1679041230
364,privolzhskiy,51.4,46.0333,280.43,62,44,4.14,RU,1679041231
365,oriximina,-1.7656,-55.8661,296.33,94,100,1.42,BR,1679041232
366,red wing,44.5625,-92.5338,265.87,76,0,5.36,US,1679040939
367,coroico,-16.1889,-67.7271,288.76,93,100,1.45,BO,1679041233
368,sandwick,60.0,-1.25,279.05,75,40,3.09,GB,1679040986
369,lubao,14.9167,120.55,305.99,49,32,5.46,PH,1679041234
370,jiwani,25.05,61.7417,299.68,72,0,4.33,PK,1679041234
371,constitucion,-35.3333,-72.4167,288.08,93,13,2.05,CL,1679040962
372,kutum,14.2,24.6667,298.79,9,100,5.72,SD,1679041235
373,vilyuysk,63.7553,121.6247,268.51,89,100,3.97,RU,1679041236
374,bonthe,7.5264,-12.505,298.76,81,98,3.67,SL,1679041236
375,buenos aires,-34.6132,-58.3772,300.0,89,75,2.57,AR,1679040944
376,husavik,66.0449,-17.3389,265.46,82,100,5.24,IS,1679041237
377,vila velha,-20.3297,-40.2925,296.12,96,100,4.12,BR,1679041238
378,botwood,49.1499,-55.3482,273.65,98,100,4.91,CA,1679041238
379,port hueneme,34.1478,-119.1951,286.36,92,0,2.57,US,1679041239
380,gursarai,25.6148,79.1788,305.61,23,59,1.31,IN,1679041239
381,lompoc,34.6391,-120.4579,285.25,84,100,2.24,US,1679041240
382,ternate,0.8,127.4,302.07,67,100,2.14,ID,1679041241
383,anadyr,64.75,177.4833,258.71,77,20,2.0,RU,1679041241
384,fare,-16.7,-151.0167,301.38,79,41,6.78,PF,1679041242
385,lavrentiya,65.5833,-171.0,251.52,86,15,2.07,RU,1679041242
386,san juan del sur,11.2529,-85.8705,298.09,85,94,5.15,NI,1679041243
387,emerald,-23.5333,148.1667,305.01,47,18,3.8,AU,1679041244
388,the valley,18.217,-63.0578,299.16,76,9,5.63,AI,1679041244
389,jericho,31.8667,35.45,299.07,36,84,1.59,PS,1679041245
390,biak,-0.9131,122.8766,300.88,75,82,0.73,ID,1679041246
391,changping,40.2186,116.2197,281.95,31,28,1.95,CN,1679041246
392,kouqian,43.6391,126.4578,278.22,23,0,6.04,CN,1679041247
393,menongue,-14.6585,17.691,296.85,58,21,1.83,AO,1679041247
394,doume,4.2333,13.45,300.18,53,93,1.21,CM,1679041248
395,goundam,16.4145,-3.6708,299.19,9,5,3.47,ML,1679041249
396,uvarovka,55.5278,35.6061,272.32,87,100,4.14,RU,1679041250
397,zenzeli,45.9241,47.0474,287.82,40,52,7.79,RU,1679041251
398,erenhot,43.6475,111.9767,275.86,17,0,5.82,CN,1679041251
399,sambava,-14.2667,50.1667,302.3,68,16,2.59,MG,1679041252
400,caravelas,-17.7125,-39.2481,294.8,96,32,2.07,BR,1679041252
401,naliya,23.2667,68.8333,304.17,35,0,7.09,IN,1679041253
402,aswan,24.0934,32.907,298.95,12,0,2.32,EG,1679041254
403,mataram,-8.5833,116.1167,299.6,78,96,0.31,ID,1679041254
404,duluth,46.7833,-92.1066,267.08,77,100,10.8,US,1679041255
405,jaca,42.569,-0.5499,285.99,47,68,3.01,ES,1679041255
406,sao lourenco,-22.1164,-45.0544,287.35,94,12,1.03,BR,1679041256
407,coihaique,-45.5752,-72.0662,274.12,86,0,1.03,CL,1679041256
408,ambon,-3.6954,128.1814,303.28,10,40,1.03,ID,1679041257
409,santa isabel do rio negro,-0.4139,-65.0192,295.26,80,100,0.8,BR,1679041258
410,riverton,40.5219,-111.9391,273.42,64,0,2.24,US,1679041259
411,torbay,47.6666,-52.7314,273.47,97,100,6.17,CA,1679041259
412,lata,40.1629,-8.3327,285.82,93,33,3.0,PT,1679041260
413,jinka,5.65,36.65,300.25,42,21,1.76,ET,1679041260
414,quatre cocos,-20.2078,57.7625,300.42,82,100,6.74,MU,1679041261
415,kinwat,19.6333,78.2,302.36,41,100,2.48,IN,1679041262
416,foz,43.5692,-7.2544,285.43,70,3,5.25,ES,1679041262
417,takapau,-40.0333,176.35,293.0,81,100,1.47,NZ,1679041263
418,atar,20.5169,-13.0499,300.29,12,54,2.26,MR,1679041264
419,gat,31.61,34.7642,296.7,32,90,4.87,IL,1679041264
420,komsomolskiy,40.4272,71.7189,292.55,32,0,3.09,UZ,1679041101
421,arvika,59.6553,12.5852,275.49,95,100,5.69,SE,1679041265
422,bernardino de campos,-23.0131,-49.4742,289.98,97,100,4.13,BR,1679041266
423,aloleng,16.1307,119.7824,300.58,69,7,5.66,PH,1679041266
424,barsana,27.65,77.3833,304.15,24,99,3.39,IN,1679041267
425,port hardy,50.6996,-127.4199,279.15,100,0,1.54,CA,1679041268
426,waspan,14.7419,-83.9717,294.26,97,30,0.92,NI,1679041268
427,sao miguel do araguaia,-13.275,-50.1628,295.32,87,100,0.85,BR,1679041269
428,soyo,-6.1349,12.3689,297.69,88,100,2.2,AO,1679041270
429,urucara,-2.5364,-57.76,295.77,99,100,1.11,BR,1679041270
430,santa vitoria do palmar,-33.5189,-53.3681,295.98,93,100,2.55,BR,1679041271
431,shingu,33.7333,135.9833,287.43,96,100,2.6,JP,1679041271
432,korschenbroich,51.1914,6.5135,284.9,68,0,3.6,DE,1679041272
433,feijo,-8.1642,-70.3536,295.0,95,100,0.39,BR,1679041273
434,sembakung,3.8167,117.25,303.2,66,100,1.84,ID,1679041273
435,vostok,46.4856,135.8833,267.16,86,100,4.4,RU,1679041274
436,santa ana,33.7456,-117.8678,285.01,88,0,0.0,US,1679041274
437,talcahuano,-36.7167,-73.1167,287.97,94,75,0.0,CL,1679041275
438,mindelo,16.8901,-24.9804,293.9,73,20,8.23,CV,1679041276
439,okha,53.5739,142.9478,265.18,91,94,2.22,RU,1679041277
440,marsh harbour,26.5412,-77.0636,292.97,61,0,6.26,BS,1679041277
441,aranos,-24.1333,19.1167,301.66,25,29,8.9,NA,1679041278
442,barra patuca,15.8,-84.2833,296.29,87,4,1.55,HN,1679041278
443,tawau,4.2498,117.8871,304.22,70,100,3.45,MY,1679040986
444,esil,51.9556,66.4042,272.47,98,100,2.19,KZ,1679041280
445,hasaki,35.7333,140.8333,285.53,75,100,8.21,JP,1679041280
446,mandera,3.9366,41.867,303.98,50,98,2.95,KE,1679041281
447,gornozavodsk,58.3758,58.3211,276.0,89,79,4.1,RU,1679041282
448,gazojak,41.1875,61.4036,291.56,16,36,9.8,TM,1679041283
449,vao,-22.6667,167.4833,297.43,91,100,2.99,NC,1679041283
450,kanigoro,-8.13,112.219,301.04,80,97,3.53,ID,1679041284
451,northam,51.0333,-4.2167,284.05,92,30,7.51,GB,1679041284
452,horta,38.5333,-28.6333,288.72,86,75,5.36,PT,1679041285
453,jingdezhen,29.2947,117.2079,283.46,80,100,2.94,CN,1679041286
454,padang,-0.9492,100.3543,304.18,77,100,1.0,ID,1679041040
455,umm lajj,25.0213,37.2685,297.17,34,0,3.98,SA,1679041287
456,jaru,-10.4389,-62.4664,294.81,97,100,0.83,BR,1679041287
457,jaguarao,-32.5661,-53.3758,294.77,90,99,2.18,BR,1679041288
458,baykit,61.67,96.37,273.94,87,100,4.9,RU,1679041288
459,ino,33.55,133.4333,287.89,97,100,0.71,JP,1679041289
460,keffi,8.8486,7.8736,302.83,43,93,1.15,NG,1679041290
461,manzhouli,49.6,117.4333,269.11,82,36,5.7,CN,1679041291
462,byron bay,-28.65,153.6167,300.34,91,0,2.79,AU,1679040851
463,priladozhskiy,59.85,31.4833,273.45,99,11,2.25,RU,1679041292
464,buenavista,8.9769,125.4089,300.46,85,100,1.35,PH,1679041292
465,coari,-4.085,-63.1414,295.56,99,97,1.14,BR,1679041293
466,vicuna,-30.0319,-70.7081,286.0,69,0,0.56,CL,1679041293
467,visnes,59.3556,5.2242,280.49,93,100,9.26,NO,1679041294
468,ramsar,36.9226,50.6426,285.84,100,75,4.12,IR,1679041294
469,lagoa,39.05,-27.9833,287.9,84,78,8.37,PT,1679041295
470,teguldet,57.3064,88.1667,273.27,98,100,2.43,RU,1679041296
471,comodoro rivadavia,-45.8667,-67.5,281.07,34,0,4.63,AR,1679041296
472,yablochnyy,47.1661,142.0661,271.36,57,82,7.15,RU,1679041297
473,coquimbo,-29.9533,-71.3436,290.0,88,0,0.51,CL,1679041297
474,vinh,18.6667,105.6667,299.51,66,2,5.36,VN,1679041298
475,fomboni,-12.28,43.7425,301.32,71,100,0.88,KM,1679041298
476,njombe,-9.3333,34.7667,290.06,90,90,2.43,TZ,1679041089
477,celestun,20.8667,-90.4,297.29,77,0,7.59,MX,1679041300
478,warrnambool,-38.3833,142.4833,294.45,64,7,2.47,AU,1679041300
479,maniitsoq,65.4167,-52.9,258.46,75,77,5.25,GL,1679041301
480,ankara,39.9199,32.8543,281.66,91,75,1.54,TR,1679040774
481,khandbari,27.3747,87.2039,296.83,34,100,3.34,NP,1679041302
482,krasnoselkup,65.7,82.4667,269.73,88,100,3.8,RU,1679041302
483,snezhnogorsk,69.1933,33.2531,261.03,87,95,7.7,RU,1679041303
484,bubaque,11.2833,-15.8333,297.86,72,10,5.39,GW,1679041304
485,grand gaube,-20.0064,57.6608,300.58,79,100,2.68,MU,1679041304
486,shenjiamen,29.9576,122.298,282.97,95,100,7.17,CN,1679041305
487,balvi,57.1313,27.2658,275.04,75,13,2.49,LV,1679041305
488,jalingo,8.8833,11.3667,304.04,36,84,2.04,NG,1679041306
489,kaukauna,44.278,-88.272,275.13,96,100,8.75,US,1679041307
490,bambanglipuro,-7.95,110.2833,301.33,79,100,4.8,ID,1679041307
491,khed brahma,24.0333,73.05,306.99,18,7,3.21,IN,1679041308
492,gonbad-e qabus,37.25,55.1672,294.68,56,20,0.0,IR,1679041309
493,kiunga,-6.1219,141.2906,299.2,90,100,0.91,PG,1679041310
494,tafresh,34.692,50.013,282.08,45,6,4.47,IR,1679041310
495,progreso,21.2833,-89.6667,297.21,86,0,5.94,MX,1679041311
496,zapolyarnyy,69.4154,30.8136,264.75,92,39,2.55,RU,1679041311
497,qeshm,26.9581,56.2719,302.08,66,0,2.1,IR,1679041312
498,general roca,-39.0333,-67.5833,292.38,49,6,6.18,AR,1679041313
499,ust-omchug,61.15,149.6333,266.15,88,90,2.12,RU,1679041314
500,salinas,36.6777,-121.6555,282.2,87,0,1.54,US,1679041059
501,xining,36.6167,101.7667,282.24,28,100,2.58,CN,1679041314
502,gamba,-2.65,10.0,299.57,83,100,1.39,GA,1679041315
503,atasu,48.6814,71.6433,268.69,78,6,4.45,KZ,1679041316
504,navalmoral de la mata,39.8916,-5.5406,285.9,74,100,3.7,ES,1679041316
505,kualakapuas,-3.0091,114.3876,300.54,86,99,1.66,ID,1679041317
506,umred,20.85,79.3333,304.31,28,32,2.37,IN,1679041317
507,dunkwa,5.9656,-1.78,299.78,82,95,1.6,GH,1679041318
508,udachnyy,66.4167,112.4,269.47,93,100,12.09,RU,1679041319
509,itapuranga,-15.5622,-49.9486,292.75,93,100,2.4,BR,1679041319
510,kushima,31.4583,131.2333,289.81,94,100,0.84,JP,1679041320
511,sidney,-33.8679,151.2073,298.02,75,100,4.63,AU,1679041320
512,opuwo,-18.0607,13.84,300.98,28,8,1.84,NA,1679041321
513,hualmay,-11.0964,-77.6139,296.8,81,100,2.91,PE,1679041323
514,riyadh,24.6877,46.7219,296.23,31,0,3.84,SA,1679041144
515,orlik,52.5178,99.825,270.55,53,0,0.18,RU,1679041324
516,pachino,36.7186,15.0907,284.53,58,6,1.06,IT,1679041325
517,itamaraju,-17.0392,-39.5311,293.15,98,19,1.49,BR,1679041325
518,gushikawa,26.3544,127.8686,296.92,69,40,5.66,JP,1679041326
519,batagay,67.6333,134.6333,259.36,92,18,1.47,RU,1679041326
520,baiquan,47.5833,126.0833,274.92,27,11,4.77,CN,1679041327
521,santa isabel,-23.3156,-46.2214,290.76,96,68,1.09,BR,1679041328
522,north bend,43.4065,-124.2243,278.07,94,0,3.09,US,1679041328
523,chapais,49.7834,-74.8492,263.03,98,100,1.35,CA,1679041069
524,shinjo,38.7586,140.3008,280.18,63,95,3.55,JP,1679041329
525,agua dulce,18.1333,-94.1333,296.17,87,7,1.45,MX,1679041330
526,saint anthony,45.0205,-93.218,263.96,76,0,9.26,US,1679041331
527,haukipudas,65.1765,25.3523,266.01,79,45,2.45,FI,1679041331
528,sobolevo,54.4299,31.8996,273.03,93,34,4.44,RU,1679041332
529,harlingen,26.1906,-97.6961,297.62,88,100,8.75,US,1679041206
530,pedernales,18.0384,-71.744,296.78,75,59,0.68,DO,1679041333
531,matara,5.9485,80.5353,303.57,58,13,4.67,LK,1679041334
532,kishi,9.0833,3.85,301.46,57,8,2.76,NG,1679041334
533,labrea,-7.2586,-64.7981,295.04,98,99,0.45,BR,1679041335
534,kemijarvi,66.7131,27.4306,264.68,96,100,2.43,FI,1679041336
535,kieta,-6.2167,155.6333,299.37,83,100,1.3,PG,1679041336
536,caucaia,-3.7361,-38.6531,297.12,87,0,1.03,BR,1679041337
537,otane,-39.8833,176.6333,294.82,78,100,3.01,NZ,1679041337
538,iskateley,67.6803,53.1512,265.13,91,99,6.07,RU,1679041278
539,omsukchan,62.5333,155.8,264.51,97,100,3.9,RU,1679041339
540,fairbanks,64.8378,-147.7164,252.93,76,20,1.54,US,1679041200
541,ahipara,-35.1667,173.1667,292.36,95,22,3.24,NZ,1679041340
542,villa carlos paz,-31.4241,-64.4978,293.92,60,0,0.89,AR,1679041340
543,itacoatiara,-3.1431,-58.4442,295.3,99,100,0.73,BR,1679041341
544,rio gallegos,-51.6226,-69.2181,278.18,60,0,7.2,AR,1679041341
545,russell,32.3502,-85.1999,286.75,89,100,2.35,US,1679041342
546,casa grande,32.8795,-111.7573,283.27,92,0,3.09,US,1679041342
547,simpang empat,4.95,100.6333,303.68,65,68,3.31,MY,1679041343
548,carutapera,-1.195,-46.02,296.49,95,100,1.4,BR,1679041344
549,okhotsk,59.3833,143.3,263.67,95,100,3.92,RU,1679041344
550,bucerias,20.75,-105.3333,291.75,62,0,2.15,MX,1679041346
551,muravlenko,63.7898,74.523,273.65,100,100,8.19,RU,1679041347
552,malinovka,53.8579,27.4374,276.87,76,12,2.25,BY,1679041348
553,pangnirtung,66.1451,-65.7125,251.32,72,12,2.8,CA,1679041348
554,qrendi,35.8347,14.4583,287.96,63,40,2.06,MT,1679041349
555,presidencia roque saenz pena,-26.7852,-60.4388,296.76,84,95,1.73,AR,1679041350
556,anju,39.6178,125.6647,281.9,27,89,3.47,KP,1679041350
557,salavat,53.3837,55.9077,274.83,95,42,2.49,RU,1679041351
558,jiuquan,39.7432,98.5174,285.83,17,52,5.08,CN,1679041351
559,camacha,33.0833,-16.3333,287.83,59,40,4.12,PT,1679041352
560,kiknur,57.3034,47.2011,273.41,100,100,2.1,RU,1679041353
561,turukhansk,65.8167,87.9833,272.53,91,100,5.03,RU,1679041353
